General Area (State),General Area (City),Services Offered,Description,Marked for Cleaning,Distributor Name,lat,lng,Location,Distributor Contact (Phone)
Madhya Pradesh,Dewas,Oxygen,,True,Oxygen Refilling,22.976913,76.07053859999999,,['+919179721009']
Madhya Pradesh,Dewas,Hospital Beds,,True,Home Nursing Care,22.9793083,76.059068,,['+918470708826']
Madhya Pradesh,Dewas,Oxygen,,True,Raj Thakur,22.9675929,76.0534454,,['+919753100200']
Madhya Pradesh,Dewas,Oxygen,,True,Rajat Choudhari,22.96416,76.0522036,,['+917879228006']
Madhya Pradesh,Dewas,Oxygen,,True,Shubham Jadhav,18.5704513,73.9566028,,['+919977939501']
Madhya Pradesh,Dewas,Oxygen,,True,Atul Medical,22.9642172,76.0522174,,['+917860023111']
Madhya Pradesh,Dewas,Oxygen,,True,Sarang Gas Refill,22.94987,76.03544,,['+917379854888']
Madhya Pradesh,Dewas,Oxygen,,True,Shikhar Gupta,22.9675929,76.0534454,,"['+917000237728', '+917000840077']"
