General Area (State),General Area (City),Services Offered,Description,Marked for Cleaning,Distributor Name,lat,lng,Location,Distributor Contact (Phone)
Maharashtra,Kolhapur,Oxygen,Notes: Yogendra Chaudhari,True,Kay Nitrogen,16.7003255,74.22740329999999,,['+919881491680']
Maharashtra,Kolhapur,Other,Notes: oxygen & ventilator available,True,Shree Sai Ambulance,16.7022073,74.2261353,,['+919890431001']
Maharashtra,Kolhapur,Other,Notes: oxygen available,True,Jivhala Ambulance,16.7154498,74.2564232,,['+917947251218']
Maharashtra,Kolhapur,Other,Notes: oxygen available,True,Pavan Life Ambulance,16.6863737,74.2299017,,['+917947250793']
Maharashtra,Kolhapur,Other,Notes: oxygen & ventilator available,True,Shivganesh Ambulance,16.7022073,74.2261353,,['+917947339535']
Maharashtra,Kolhapur,Other,Notes: oxygen & ventilator available,True,Seva Pratishthan,16.7015244,74.2169675,,['+919225068435']
